[{"Company": "Asda", "Link": "https://www.asda.jobs//vacancy/cleaning-colleague-70854-belfast/70873/description/", "Postcode": " BT15 3PR", "Latitude": "54.5833", "Longitude": "-5.9333", "Id": "70854", "Job Title ": "Cleaning Colleague ", "Location": "Belfast Shore Road  - Northern Ireland ", "Employment Type": "Part-time ", "Contract Type": "Temporary ", "Hours per Week": "12 ", "Salary": "\u00a310.10 "}, {"Company": "Asda", "Link": "https://www.asda.jobs//vacancy/cleaning-colleague-70828-edinburgh/70847/description/", "Postcode": " EH14 1RJ", "Latitude": "55.894733333333335", "Longitude": "-3.3110166666666667", "Id": "70828", "Job Title ": "Cleaning Colleague ", "Location": "Chesser ", "Employment Type": "Part-time ", "Contract Type": "Temporary ", "Hours per Week": "19.50 ", "Salary": "\u00a310.10 "}, {"Company": "Asda", "Link": "https://www.asda.jobs//vacancy/cleaning-colleague-70893-coleraine/70912/description/", "Postcode": " BT52 1QP", "Latitude": "55.14166666666667", "Longitude": "-6.6417", "Id": "70893", "Job Title ": "Cleaning Colleague ", "Location": "Coleraine - Northern Ireland ", "Employment Type": "Part-time ", "Contract Type": "Temporary ", "Hours per Week": "10 ", "Salary": "\u00a310.10 "}, {"Company": "Asda", "Link": "https://www.asda.jobs//vacancy/cleaning-colleague-70641-doncaster/70660/description/", "Postcode": " DN4 5NW", "Latitude": "53.497", "Longitude": "-1.1821", "Id": "70641", "Job Title ": "Cleaning Colleague ", "Location": "Doncaster ", "Employment Type": "Part-time ", "Contract Type": "Permanent ", "Hours per Week": "15 ", "Salary": "\u00a310.10 "}, {"Company": "Asda", "Link": "https://www.asda.jobs//vacancy/cleaning-colleague-70294-basildon---essex/70313/description/", "Postcode": " SS14 1AE", "Latitude": "51.5684", "Longitude": "0.4578", "Id": "70294", "Job Title ": "Cleaning Colleague ", "Location": "Eastgate Supercentre ", "Employment Type": "Part-time ", "Contract Type": "Temporary ", "Hours per Week": "25 ", "Salary": "\u00a310.10 "}, {"Company": "Asda", "Link": "https://www.asda.jobs//vacancy/cleaning-colleague-69937-edinburgh/69956/description/", "Postcode": " EH15 3AR", "Latitude": "55.948033333333335", "Longitude": "-3.1120666666666668", "Id": "69937", "Job Title ": "Cleaning Colleague ", "Location": "Edinburgh Supercentre ", "Employment Type": "Part-time ", "Contract Type": "Permanent ", "Hours per Week": "17.50 ", "Salary": "\u00a310.10 "}, {"Company": "Asda", "Link": "https://www.asda.jobs//vacancy/cleaning-colleague-70699-frome-/70718/description/", "Postcode": " BA11 5LA", "Latitude": "51.216945", "Longitude": "-2.351325", "Id": "70699", "Job Title ": "Cleaning Colleague ", "Location": "Frome ", "Employment Type": "Part-time ", "Contract Type": "Temporary ", "Hours per Week": "12 ", "Salary": "\u00a310.10 "}, {"Company": "Asda", "Link": "https://www.asda.jobs//vacancy/cleaning-colleague-69725-high-wycombe/69744/description/", "Postcode": " HP12 4NU", "Latitude": "51.6143", "Longitude": "-0.7944", "Id": "69725", "Job Title ": "Cleaning Colleague ", "Location": "High Wycombe ", "Employment Type": "Part-time ", "Contract Type": "Permanent ", "Hours per Week": "15 ", "Salary": "\u00a310.70 "}, {"Company": "Asda", "Link": "https://www.asda.jobs//vacancy/cleaning-colleague-70796-kendal/70815/description/", "Postcode": " LA9 7JA", "Latitude": "54.32532", "Longitude": "-2.74938", "Id": "70796", "Job Title ": "Cleaning Colleague ", "Location": "Kendal ", "Employment Type": "Part-time ", "Contract Type": "Temporary ", "Hours per Week": "20 ", "Salary": "\u00a310.10 "}, {"Company": "Asda", "Link": "https://www.asda.jobs//vacancy/cleaning-colleague-70340-reading----berks-/70359/description/", "Postcode": " RG6 5TT", "Latitude": "51.4396", "Longitude": "-0.9292", "Id": "70340", "Job Title ": "Cleaning Colleague ", "Location": "Lower Earley ", "Employment Type": "Part-time ", "Contract Type": "Temporary ", "Hours per Week": "20 ", "Salary": "\u00a310.70 "}, {"Company": "Asda", "Link": "https://www.asda.jobs//vacancy/cleaning-colleague-70544-london/70563/description/", "Postcode": " SW15 3DT", "Latitude": "51.45653333333333", "Longitude": "-0.2306", "Id": "70544", "Job Title ": "Cleaning Colleague ", "Location": "Roehampton ", "Employment Type": "Part-time ", "Contract Type": "Permanent ", "Hours per Week": "25 ", "Salary": "\u00a311.27 "}, {"Company": "Asda", "Link": "https://www.asda.jobs//vacancy/cleaning-colleague-70763-southampton/70782/description/", "Postcode": " SO30 3DQ", "Latitude": "50.91855", "Longitude": "-1.30265", "Id": "70763", "Job Title ": "Cleaning Colleague ", "Location": "Southampton West End - Supermarket ", "Employment Type": "Part-time ", "Contract Type": "Permanent ", "Hours per Week": "16 ", "Salary": "\u00a310.10 "}, {"Company": "Asda", "Link": "https://www.asda.jobs//vacancy/cleaning-colleague-69951-stafford/69970/description/", "Postcode": " ST16 3TA", "Latitude": "52.8052", "Longitude": "-2.1164", "Id": "69951", "Job Title ": "Cleaning Colleague ", "Location": "Stafford ", "Employment Type": "Part-time ", "Contract Type": "Seasonal ", "Hours per Week": "8 ", "Salary": "\u00a310.10 "}, {"Company": "Asda", "Link": "https://www.asda.jobs//vacancy/cleaning-colleague-70647-sutton/70666/description/", "Postcode": " SM1 1LD", "Latitude": "51.35", "Longitude": "-0.2", "Id": "70647", "Job Title ": "Cleaning Colleague ", "Location": "Sutton ", "Employment Type": "Part-time ", "Contract Type": "Permanent ", "Hours per Week": "12 ", "Salary": "\u00a311.27 "}, {"Company": "Asda", "Link": "https://www.asda.jobs//vacancy/cleaning-colleague-70773-tain/70792/description/", "Postcode": " IV19 1NZ", "Latitude": "57.79530625", "Longitude": "-4.05806875", "Id": "70773", "Job Title ": "Cleaning Colleague ", "Location": "Tain - Supermarket ", "Employment Type": "Part-time ", "Contract Type": "Temporary ", "Hours per Week": "16 ", "Salary": "\u00a310.10 "}, {"Company": "Asda", "Link": "https://www.asda.jobs//vacancy/cleaning-colleague-70358-warrington/70377/description/", "Postcode": " WA5 8UG", "Latitude": "53.409775", "Longitude": "-2.6556", "Id": "70358", "Job Title ": "Cleaning Colleague ", "Location": "Westbrook ", "Employment Type": "Part-time ", "Contract Type": "Permanent ", "Hours per Week": "20 ", "Salary": "\u00a310.10 "}, {"Company": "Asda", "Link": "https://www.asda.jobs//vacancy/cleaning-colleague-70312-wythenshawe/70331/description/", "Postcode": " M22 5HZ", "Latitude": "53.3861", "Longitude": "-2.2599", "Id": "70312", "Job Title ": "Cleaning Colleague ", "Location": "Wythenshawe ", "Employment Type": "Part-time ", "Contract Type": "Temporary ", "Hours per Week": "18 ", "Salary": "\u00a310.10 "}, {"Company": "Asda", "Link": "https://www.asda.jobs//vacancy/online-service-colleague---days-70834-cardiff/70853/description/", "Postcode": " CF14 7EW", "Latitude": "51.5199", "Longitude": "-3.204", "Id": "70834", "Job Title ": "Online Service Colleague - Days ", "Location": "Cardiff Coryton ", "Employment Type": "Part-time ", "Contract Type": "Temporary ", "Hours per Week": "16 ", "Salary": "\u00a310.10 "}, {"Company": "Asda", "Link": "https://www.asda.jobs//vacancy/online-service-colleague---days-70884-newton-abbott/70903/description/", "Postcode": " TQ12 1TG", "Latitude": "50.526051851851854", "Longitude": "-3.6118259259259258", "Id": "70884", "Job Title ": "Online Service Colleague - Days ", "Location": "Newton Abbott ", "Employment Type": "Part-time ", "Contract Type": "Temporary ", "Hours per Week": "19 ", "Salary": "\u00a310.10 "}, {"Company": "Asda", "Link": "https://www.asda.jobs//vacancy/online-service-colleague---days-70859-wembley/70878/description/", "Postcode": " HA9 9EX", "Latitude": "51.5531", "Longitude": "-0.3023", "Id": "70859", "Job Title ": "Online Service Colleague - Days ", "Location": "Wembley ", "Employment Type": "Part-time ", "Contract Type": "Permanent ", "Hours per Week": "12 ", "Salary": "\u00a311.27 "}]