[{"Company": "Asda", "Link": "https://www.asda.jobs//vacancy/cleaning-colleague-70854-belfast/70873/description/", "Postcode": " BT15 3PR", "Latitude": "54.5833", "Longitude": "-5.9333", "Id": "70854", "Job Title ": "Cleaning Colleague ", "Location": "Belfast Shore Road  - Northern Ireland ", "Employment Type": "Part-time ", "Contract Type": "Temporary ", "Hours per Week": "12 ", "Salary": ""}, {"Company": "Asda", "Link": "https://www.asda.jobs//vacancy/cleaning-colleague-70912-bootle-liverpool/70931/description/", "Postcode": " L20 4BB", "Latitude": "53.4667", "Longitude": "-3.0167", "Id": "70912", "Job Title ": "Cleaning Colleague ", "Location": "Bootle ", "Employment Type": "Part-time ", "Contract Type": "Permanent ", "Hours per Week": "19 ", "Salary": ""}, {"Company": "Asda", "Link": "https://www.asda.jobs//vacancy/cleaning-colleague-70828-edinburgh/70847/description/", "Postcode": " EH14 1RJ", "Latitude": "55.894733333333335", "Longitude": "-3.3110166666666667", "Id": "70828", "Job Title ": "Cleaning Colleague ", "Location": "Chesser ", "Employment Type": "Part-time ", "Contract Type": "Temporary ", "Hours per Week": "19.50 ", "Salary": ""}, {"Company": "Asda", "Link": "https://www.asda.jobs//vacancy/cleaning-colleague-70893-coleraine/70912/description/", "Postcode": " BT52 1QP", "Latitude": "55.14166666666667", "Longitude": "-6.6417", "Id": "70893", "Job Title ": "Cleaning Colleague ", "Location": "Coleraine - Northern Ireland ", "Employment Type": "Part-time ", "Contract Type": "Temporary ", "Hours per Week": "10 ", "Salary": ""}, {"Company": "Asda", "Link": "https://www.asda.jobs//vacancy/cleaning-colleague-70641-doncaster/70660/description/", "Postcode": " DN4 5NW", "Latitude": "53.497", "Longitude": "-1.1821", "Id": "70641", "Job Title ": "Cleaning Colleague ", "Location": "Doncaster ", "Employment Type": "Part-time ", "Contract Type": "Permanent ", "Hours per Week": "15 ", "Salary": ""}, {"Company": "Asda", "Link": "https://www.asda.jobs//vacancy/cleaning-colleague-70294-basildon---essex/70313/description/", "Postcode": " SS14 1AE", "Latitude": "51.5684", "Longitude": "0.4578", "Id": "70294", "Job Title ": "Cleaning Colleague ", "Location": "Eastgate Supercentre ", "Employment Type": "Part-time ", "Contract Type": "Temporary ", "Hours per Week": "25 ", "Salary": ""}, {"Company": "Asda", "Link": "https://www.asda.jobs//vacancy/cleaning-colleague-69937-edinburgh/69956/description/", "Postcode": " EH15 3AR", "Latitude": "55.948033333333335", "Longitude": "-3.1120666666666668", "Id": "69937", "Job Title ": "Cleaning Colleague ", "Location": "Edinburgh Supercentre ", "Employment Type": "Part-time ", "Contract Type": "Permanent ", "Hours per Week": "17.50 ", "Salary": ""}, {"Company": "Asda", "Link": "https://www.asda.jobs//vacancy/cleaning-colleague-70699-frome-/70718/description/", "Postcode": " BA11 5LA", "Latitude": "51.216945", "Longitude": "-2.351325", "Id": "70699", "Job Title ": "Cleaning Colleague ", "Location": "Frome ", "Employment Type": "Part-time ", "Contract Type": "Temporary ", "Hours per Week": "12 ", "Salary": ""}, {"Company": "Asda", "Link": "https://www.asda.jobs//vacancy/cleaning-colleague-70914-swansea/70933/description/", "Postcode": " SA4 4BZ", "Latitude": "51.670225", "Longitude": "-4.059125", "Id": "70914", "Job Title ": "Cleaning Colleague ", "Location": "Gorseinon ", "Employment Type": "Part-time ", "Contract Type": "Permanent ", "Hours per Week": "12 ", "Salary": ""}, {"Company": "Asda", "Link": "https://www.asda.jobs//vacancy/cleaning-colleague-69725-high-wycombe/69744/description/", "Postcode": " HP12 4NU", "Latitude": "51.6143", "Longitude": "-0.7944", "Id": "69725", "Job Title ": "Cleaning Colleague ", "Location": "High Wycombe ", "Employment Type": "Part-time ", "Contract Type": "Permanent ", "Hours per Week": "15 ", "Salary": ""}, {"Company": "Asda", "Link": "https://www.asda.jobs//vacancy/cleaning-colleague-70796-kendal/70815/description/", "Postcode": " LA9 7JA", "Latitude": "54.32532", "Longitude": "-2.74938", "Id": "70796", "Job Title ": "Cleaning Colleague ", "Location": "Kendal ", "Employment Type": "Part-time ", "Contract Type": "Temporary ", "Hours per Week": "20 ", "Salary": ""}, {"Company": "Asda", "Link": "https://www.asda.jobs//vacancy/cleaning-colleague-70340-reading----berks-/70359/description/", "Postcode": " RG6 5TT", "Latitude": "51.4396", "Longitude": "-0.9292", "Id": "70340", "Job Title ": "Cleaning Colleague ", "Location": "Lower Earley ", "Employment Type": "Part-time ", "Contract Type": "Temporary ", "Hours per Week": "20 ", "Salary": ""}, {"Company": "Asda", "Link": "https://www.asda.jobs//vacancy/cleaning-colleague-70544-london/70563/description/", "Postcode": " SW15 3DT", "Latitude": "51.45653333333333", "Longitude": "-0.2306", "Id": "70544", "Job Title ": "Cleaning Colleague ", "Location": "Roehampton ", "Employment Type": "Part-time ", "Contract Type": "Permanent ", "Hours per Week": "25 ", "Salary": ""}, {"Company": "Asda", "Link": "https://www.asda.jobs//vacancy/cleaning-colleague-70763-southampton/70782/description/", "Postcode": " SO30 3DQ", "Latitude": "50.91855", "Longitude": "-1.30265", "Id": "70763", "Job Title ": "Cleaning Colleague ", "Location": "Southampton West End - Supermarket ", "Employment Type": "Part-time ", "Contract Type": "Permanent ", "Hours per Week": "16 ", "Salary": ""}, {"Company": "Asda", "Link": "https://www.asda.jobs//vacancy/cleaning-colleague-69951-stafford/69970/description/", "Postcode": " ST16 3TA", "Latitude": "52.8052", "Longitude": "-2.1164", "Id": "69951", "Job Title ": "Cleaning Colleague ", "Location": "Stafford ", "Employment Type": "Part-time ", "Contract Type": "Seasonal ", "Hours per Week": "8 ", "Salary": ""}, {"Company": "Asda", "Link": "https://www.asda.jobs//vacancy/cleaning-colleague-70900-stanley/70919/description/", "Postcode": " DH9 ONB", "Latitude": "54.867425", "Longitude": "-1.7116", "Id": "70900", "Job Title ": "Cleaning Colleague ", "Location": "Stanley ", "Employment Type": "Part-time ", "Contract Type": "Temporary ", "Hours per Week": "20 ", "Salary": ""}, {"Company": "Asda", "Link": "https://www.asda.jobs//vacancy/cleaning-colleague-70647-sutton/70666/description/", "Postcode": " SM1 1LD", "Latitude": "51.35", "Longitude": "-0.2", "Id": "70647", "Job Title ": "Cleaning Colleague ", "Location": "Sutton ", "Employment Type": "Part-time ", "Contract Type": "Permanent ", "Hours per Week": "12 ", "Salary": ""}, {"Company": "Asda", "Link": "https://www.asda.jobs//vacancy/cleaning-colleague-70773-tain/70792/description/", "Postcode": " IV19 1NZ", "Latitude": "57.79530625", "Longitude": "-4.05806875", "Id": "70773", "Job Title ": "Cleaning Colleague ", "Location": "Tain - Supermarket ", "Employment Type": "Part-time ", "Contract Type": "Temporary ", "Hours per Week": "16 ", "Salary": ""}, {"Company": "Asda", "Link": "https://www.asda.jobs//vacancy/cleaning-colleague-70358-warrington/70377/description/", "Postcode": " WA5 8UG", "Latitude": "53.409775", "Longitude": "-2.6556", "Id": "70358", "Job Title ": "Cleaning Colleague ", "Location": "Westbrook ", "Employment Type": "Part-time ", "Contract Type": "Permanent ", "Hours per Week": "20 ", "Salary": ""}, {"Company": "Asda", "Link": "https://www.asda.jobs//vacancy/cleaning-colleague-70312-wythenshawe/70331/description/", "Postcode": " M22 5HZ", "Latitude": "53.3861", "Longitude": "-2.2599", "Id": "70312", "Job Title ": "Cleaning Colleague ", "Location": "Wythenshawe ", "Employment Type": "Part-time ", "Contract Type": "Temporary ", "Hours per Week": "18 ", "Salary": ""}, {"Company": "Asda", "Link": "https://www.asda.jobs//vacancy/store-assistant---days-70856-bishop-auckland---county-durham/70875/description/", "Postcode": " DL14 7LB ", "Latitude": "54.65140666666667", "Longitude": "-1.7070933333333334", "Id": "70856", "Job Title ": "Store Assistant - Days ", "Location": "Bishop Auckland ", "Employment Type": "Part-time ", "Contract Type": "Temporary ", "Hours per Week": "16 ", "Salary": ""}, {"Company": "Asda", "Link": "https://www.asda.jobs//vacancy/store-assistant---days-70870-bromborough---cheshire/70889/description/", "Postcode": " CH62 3QP", "Latitude": "53.3339", "Longitude": "-2.9815", "Id": "70870", "Job Title ": "Store Assistant - Days ", "Location": "Bromborough ", "Employment Type": "Part-time ", "Contract Type": "Temporary ", "Hours per Week": "16 ", "Salary": ""}, {"Company": "Asda", "Link": "https://www.asda.jobs//vacancy/store-assistant---days-70864-worthing/70883/description/", "Postcode": " BN12 6PN", "Latitude": "50.80785", "Longitude": "-0.43005", "Id": "70864", "Job Title ": "Store Assistant - Days ", "Location": "Ferring ", "Employment Type": "Part-time ", "Contract Type": "Temporary ", "Hours per Week": "16 ", "Salary": ""}, {"Company": "Asda", "Link": "https://www.asda.jobs//vacancy/store-assistant---days-70937-stanley/70956/description/", "Postcode": " DH9 ONB", "Latitude": "54.867425", "Longitude": "-1.7116", "Id": "70937", "Job Title ": "Store Assistant - Days ", "Location": "Stanley ", "Employment Type": "Part-time ", "Contract Type": "Temporary ", "Hours per Week": "20 ", "Salary": ""}, {"Company": "Asda", "Link": "https://www.asda.jobs//vacancy/store-assistant---days-70946-tain/70965/description/", "Postcode": " IV19 1NZ", "Latitude": "57.79530625", "Longitude": "-4.05806875", "Id": "70946", "Job Title ": "Store Assistant - Days ", "Location": "Tain - Supermarket ", "Employment Type": "Part-time ", "Contract Type": "Temporary ", "Hours per Week": "24 ", "Salary": ""}, {"Company": "Asda", "Link": "https://www.asda.jobs//vacancy/store-assistant---days-70899-andover/70918/description/", "Postcode": " SP10 2RW", "Latitude": "51.2167", "Longitude": "-1.49775", "Id": "70899", "Job Title ": "Store Assistant - Days ", "Location": "Andover ", "Employment Type": "Part-time ", "Contract Type": "Temporary ", "Hours per Week": "12 ", "Salary": ""}, {"Company": "Asda", "Link": "https://www.asda.jobs//vacancy/store-assistant---days-70694-basingstoke/70713/description/", "Postcode": " RG22 4DH", "Latitude": "51.2487", "Longitude": "-1.1244", "Id": "70694", "Job Title ": "Store Assistant - Days ", "Location": "Basingstoke ", "Employment Type": "Part-time ", "Contract Type": "Temporary ", "Hours per Week": "16 ", "Salary": ""}, {"Company": "Asda", "Link": "https://www.asda.jobs//vacancy/store-assistant---days-70712-bideford-devon/70731/description/", "Postcode": " EX39 3QU", "Latitude": "50.99405869565218", "Longitude": "-4.261958695652174", "Id": "70712", "Job Title ": "Store Assistant - Days ", "Location": "Bideford ", "Employment Type": "Part-time ", "Contract Type": "Permanent ", "Hours per Week": "16 ", "Salary": ""}, {"Company": "Asda", "Link": "https://www.asda.jobs//vacancy/store-assistant---days-70710-aberdeen/70729/description/", "Postcode": " AB10 7QA", "Latitude": "57.1437", "Longitude": "-2.0981", "Id": "70710", "Job Title ": "Store Assistant - Days ", "Location": "Bridge of Dee Supercentre ", "Employment Type": "Part-time ", "Contract Type": "Temporary ", "Hours per Week": "16 ", "Salary": ""}, {"Company": "Asda", "Link": "https://www.asda.jobs//vacancy/store-assistant---days-70910-dagenham/70929/description/", "Postcode": " RM8 1BB", "Latitude": "51.5461", "Longitude": "0.1389", "Id": "70910", "Job Title ": "Store Assistant - Days ", "Location": "Chadwell Heath ", "Employment Type": "Part-time ", "Contract Type": "Temporary ", "Hours per Week": "20 ", "Salary": ""}, {"Company": "Asda", "Link": "https://www.asda.jobs//vacancy/store-assistant---days-70905-cheltenham/70924/description/", "Postcode": " GL51 6PN", "Latitude": "51.90277692307692", "Longitude": "-2.1239538461538463", "Id": "70905", "Job Title ": "Store Assistant - Days ", "Location": "Cheltenham ", "Employment Type": "Part-time ", "Contract Type": "Temporary ", "Hours per Week": "24 ", "Salary": ""}, {"Company": "Asda", "Link": "https://www.asda.jobs//vacancy/store-assistant---days-70749-clevedon/70768/description/", "Postcode": " BS21 6RR", "Latitude": "51.43066", "Longitude": "-2.8366800000000003", "Id": "70749", "Job Title ": "Store Assistant - Days ", "Location": "Clevedon - Supermarket ", "Employment Type": "Part-time ", "Contract Type": "Temporary ", "Hours per Week": "16 ", "Salary": ""}, {"Company": "Asda", "Link": "https://www.asda.jobs//vacancy/store-assistant---days-70750-clevedon/70769/description/", "Postcode": " BS21 6RR", "Latitude": "51.43066", "Longitude": "-2.8366800000000003", "Id": "70750", "Job Title ": "Store Assistant - Days ", "Location": "Clevedon - Supermarket ", "Employment Type": "Part-time ", "Contract Type": "Temporary ", "Hours per Week": "20 ", "Salary": ""}, {"Company": "Asda", "Link": "https://www.asda.jobs//vacancy/store-assistant---days-70913-swansea/70932/description/", "Postcode": " SA4 4BZ", "Latitude": "51.670225", "Longitude": "-4.059125", "Id": "70913", "Job Title ": "Store Assistant - Days ", "Location": "Gorseinon ", "Employment Type": "Part-time ", "Contract Type": "Permanent ", "Hours per Week": "16 ", "Salary": ""}, {"Company": "Asda", "Link": "https://www.asda.jobs//vacancy/store-assistant---days-70760-grimethorpe/70779/description/", "Postcode": " S72 7LT", "Latitude": "53.573214285714286", "Longitude": "-1.382628571428571", "Id": "70760", "Job Title ": "Store Assistant - Days ", "Location": "Grimethorpe - Supermarket ", "Employment Type": "Part-time ", "Contract Type": "Permanent ", "Hours per Week": "16 ", "Salary": ""}, {"Company": "Asda", "Link": "https://www.asda.jobs//vacancy/store-assistant---days-70922-hayes/70941/description/", "Postcode": " UB3 4AZ", "Latitude": "51.5158", "Longitude": "-0.4234", "Id": "70922", "Job Title ": "Store Assistant - Days ", "Location": "Hayes ", "Employment Type": "Part-time ", "Contract Type": "Temporary ", "Hours per Week": "12 ", "Salary": ""}, {"Company": "Asda", "Link": "https://www.asda.jobs//vacancy/store-assistant---days-70932-kendal/70951/description/", "Postcode": " LA9 7JA", "Latitude": "54.32532", "Longitude": "-2.74938", "Id": "70932", "Job Title ": "Store Assistant - Days ", "Location": "Kendal ", "Employment Type": "Part-time ", "Contract Type": "Permanent ", "Hours per Week": "25 ", "Salary": ""}, {"Company": "Asda", "Link": "https://www.asda.jobs//vacancy/store-assistant---days-70757-lancaster/70776/description/", "Postcode": " LA1 5JR", "Latitude": "54.0316", "Longitude": "-2.7915", "Id": "70757", "Job Title ": "Store Assistant - Days ", "Location": "Lancaster ", "Employment Type": "Part-time ", "Contract Type": "Temporary ", "Hours per Week": "24 ", "Salary": ""}, {"Company": "Asda", "Link": "https://www.asda.jobs//vacancy/store-assistant---days-70916-leigh/70935/description/", "Postcode": " WN7 1QX", "Latitude": "53.4931", "Longitude": "-2.5175", "Id": "70916", "Job Title ": "Store Assistant - Days ", "Location": "Leigh Windermere Road - Supermarket ", "Employment Type": "Part-time ", "Contract Type": "Temporary ", "Hours per Week": "16 ", "Salary": ""}, {"Company": "Asda", "Link": "https://www.asda.jobs//vacancy/store-assistant---days-70918-leigh/70937/description/", "Postcode": " WN7 1QX", "Latitude": "53.4931", "Longitude": "-2.5175", "Id": "70918", "Job Title ": "Store Assistant - Days ", "Location": "Leigh Windermere Road - Supermarket ", "Employment Type": "Part-time ", "Contract Type": "Temporary ", "Hours per Week": "16 ", "Salary": ""}, {"Company": "Asda", "Link": "https://www.asda.jobs//vacancy/store-assistant---days-70917-livingston/70936/description/", "Postcode": " EH54 6NB", "Latitude": "55.9029", "Longitude": "-3.5226", "Id": "70917", "Job Title ": "Store Assistant - Days ", "Location": "Livingston Supercentre ", "Employment Type": "Part-time ", "Contract Type": "Temporary ", "Hours per Week": "25 ", "Salary": ""}, {"Company": "Asda", "Link": "https://www.asda.jobs//vacancy/store-assistant---days-70707-bridgend/70726/description/", "Postcode": " CF33 6BU", "Latitude": "51.52158333333333", "Longitude": "-3.697183333333333", "Id": "70707", "Job Title ": "Store Assistant - Days ", "Location": "Pyle - Supermarket ", "Employment Type": "Part-time ", "Contract Type": "Temporary ", "Hours per Week": "16 ", "Salary": ""}, {"Company": "Asda", "Link": "https://www.asda.jobs//vacancy/store-assistant---days-70708-bridgend/70727/description/", "Postcode": " CF33 6BU", "Latitude": "51.52158333333333", "Longitude": "-3.697183333333333", "Id": "70708", "Job Title ": "Store Assistant - Days ", "Location": "Pyle - Supermarket ", "Employment Type": "Part-time ", "Contract Type": "Temporary ", "Hours per Week": "16 ", "Salary": ""}, {"Company": "Asda", "Link": "https://www.asda.jobs//vacancy/store-assistant---days-70923-stenhousemuir/70942/description/", "Postcode": " FK5 3DB", "Latitude": "56.0258", "Longitude": "-3.823525", "Id": "70923", "Job Title ": "Store Assistant - Days ", "Location": "Stenhousemuir ", "Employment Type": "Part-time ", "Contract Type": "Temporary ", "Hours per Week": "14 ", "Salary": ""}, {"Company": "Asda", "Link": "https://www.asda.jobs//vacancy/store-assistant---days-70758-woksop/70777/description/", "Postcode": " S80 3NE", "Latitude": "53.28049", "Longitude": "-1.17163", "Id": "70758", "Job Title ": "Store Assistant - Days ", "Location": "Worksop ", "Employment Type": "Part-time ", "Contract Type": "Permanent ", "Hours per Week": "15 ", "Salary": ""}, {"Company": "Asda", "Link": "https://www.asda.jobs//vacancy/store-assistant---days-70728-ashford---kent/70747/description/", "Postcode": " TN24 OSE", "Latitude": "51.1511", "Longitude": "0.8908125", "Id": "70728", "Job Title ": "Store Assistant - Days ", "Location": "Ashford ", "Employment Type": "Part-time ", "Contract Type": "Temporary ", "Hours per Week": "22.50 ", "Salary": ""}, {"Company": "Asda", "Link": "https://www.asda.jobs//vacancy/store-assistant---days-70799-warrington---cheshire/70818/description/", "Postcode": " WA3 7PG", "Latitude": "53.45247272727273", "Longitude": "-2.5457272727272726", "Id": "70799", "Job Title ": "Store Assistant - Days ", "Location": "Birchwood ", "Employment Type": "Part-time ", "Contract Type": "Temporary ", "Hours per Week": "21 ", "Salary": ""}, {"Company": "Asda", "Link": "https://www.asda.jobs//vacancy/store-assistant---days-70649-blantyre---glasgow/70668/description/", "Postcode": " G72 0AQ", "Latitude": "55.80098", "Longitude": "-4.12986", "Id": "70649", "Job Title ": "Store Assistant - Days ", "Location": "Blantyre ", "Employment Type": "Part-time ", "Contract Type": "Temporary ", "Hours per Week": "27 ", "Salary": ""}, {"Company": "Asda", "Link": "https://www.asda.jobs//vacancy/store-assistant---days-70791-bromborough---cheshire/70810/description/", "Postcode": " CH62 3QP", "Latitude": "53.3339", "Longitude": "-2.9815", "Id": "70791", "Job Title ": "Store Assistant - Days ", "Location": "Bromborough ", "Employment Type": "Part-time ", "Contract Type": "Temporary ", "Hours per Week": "16 ", "Salary": ""}, {"Company": "Asda", "Link": "https://www.asda.jobs//vacancy/store-assistant---days-70607-burton-on-trent/70626/description/", "Postcode": " DE14 3TN", "Latitude": "52.7953", "Longitude": "-1.6546500000000002", "Id": "70607", "Job Title ": "Store Assistant - Days ", "Location": "Burton on Trent ", "Employment Type": "Part-time ", "Contract Type": "Permanent ", "Hours per Week": "20 ", "Salary": ""}, {"Company": "Asda", "Link": "https://www.asda.jobs//vacancy/store-assistant---days-70469-bury-st-edmunds-suffolk/70488/description/", "Postcode": " IP33 3SP", "Latitude": "52.24815", "Longitude": "0.6889", "Id": "70469", "Job Title ": "Store Assistant - Days ", "Location": "Bury St Edmonds ", "Employment Type": "Part-time ", "Contract Type": "Temporary ", "Hours per Week": "30 ", "Salary": ""}, {"Company": "Asda", "Link": "https://www.asda.jobs//vacancy/store-assistant---days-70788-aberdeen/70807/description/", "Postcode": " AB21 7NG", "Latitude": "57.2111", "Longitude": "-2.2037", "Id": "70788", "Job Title ": "Store Assistant - Days ", "Location": "Dyce ", "Employment Type": "Part-time ", "Contract Type": "Temporary ", "Hours per Week": "24 ", "Salary": ""}, {"Company": "Asda", "Link": "https://www.asda.jobs//vacancy/store-assistant---days-70500-eastleigh/70519/description/", "Postcode": " SO53 3YJ", "Latitude": "50.9846", "Longitude": "-1.399", "Id": "70500", "Job Title ": "Store Assistant - Days ", "Location": "Eastleigh Supercentre ", "Employment Type": "Part-time ", "Contract Type": "Temporary ", "Hours per Week": "25 ", "Salary": ""}, {"Company": "Asda", "Link": "https://www.asda.jobs//vacancy/store-assistant---days-70502-eastleigh/70521/description/", "Postcode": " SO53 3YJ", "Latitude": "50.9846", "Longitude": "-1.399", "Id": "70502", "Job Title ": "Store Assistant - Days ", "Location": "Eastleigh Supercentre ", "Employment Type": "Part-time ", "Contract Type": "Temporary ", "Hours per Week": "25 ", "Salary": ""}, {"Company": "Asda", "Link": "https://www.asda.jobs//vacancy/store-assistant---days-70524-worthing/70543/description/", "Postcode": " BN12 6PN", "Latitude": "50.80785", "Longitude": "-0.43005", "Id": "70524", "Job Title ": "Store Assistant - Days ", "Location": "Ferring ", "Employment Type": "Part-time ", "Contract Type": "Temporary ", "Hours per Week": "12 ", "Salary": ""}, {"Company": "Asda", "Link": "https://www.asda.jobs//vacancy/store-assistant---days-70662-kettering/70681/description/", "Postcode": " NN16 9HU", "Latitude": "52.407900000000005", "Longitude": "-0.7116000000000001", "Id": "70662", "Job Title ": "Store Assistant - Days ", "Location": "Kettering ", "Employment Type": "Part-time ", "Contract Type": "Temporary ", "Hours per Week": "15 ", "Salary": ""}, {"Company": "Asda", "Link": "https://www.asda.jobs//vacancy/store-assistant---days-70620-llandudno/70639/description/", "Postcode": " LL31 1AR", "Latitude": "53.29415", "Longitude": "-3.81595", "Id": "70620", "Job Title ": "Store Assistant - Days ", "Location": "Llandudno Conway Road - Supermarket ", "Employment Type": "Part-time ", "Contract Type": "Permanent ", "Hours per Week": "14.25 ", "Salary": ""}, {"Company": "Asda", "Link": "https://www.asda.jobs//vacancy/store-assistant---days-70686-market-drayton/70705/description/", "Postcode": " TF9 1HY", "Latitude": "52.85675853658537", "Longitude": "-2.425558536585366", "Id": "70686", "Job Title ": "Store Assistant - Days ", "Location": "Market Drayton - Supermarket ", "Employment Type": "Part-time ", "Contract Type": "Permanent ", "Hours per Week": "17 ", "Salary": ""}, {"Company": "Asda", "Link": "https://www.asda.jobs//vacancy/store-assistant---days-70849-cornwall/70868/description/", "Postcode": " TR7 1RN", "Latitude": "50.41865", "Longitude": "-5.060475", "Id": "70849", "Job Title ": "Store Assistant - Days ", "Location": "Newquay - Supermarket ", "Employment Type": "Part-time ", "Contract Type": "Permanent ", "Hours per Week": "20 ", "Salary": ""}, {"Company": "Asda", "Link": "https://www.asda.jobs//vacancy/store-assistant---days-70826-tranent/70845/description/", "Postcode": " EH33 1LP", "Latitude": "55.945", "Longitude": "-2.9084", "Id": "70826", "Job Title ": "Store Assistant - Days ", "Location": "Tranent - Supermarket ", "Employment Type": "Part-time ", "Contract Type": "Temporary ", "Hours per Week": "20 ", "Salary": ""}, {"Company": "Asda", "Link": "https://www.asda.jobs//vacancy/store-assistant---days-70677-trowbridge/70696/description/", "Postcode": " BA14 8AT", "Latitude": "51.32102", "Longitude": "-2.1876733333333336", "Id": "70677", "Job Title ": "Store Assistant - Days ", "Location": "Trowbridge ", "Employment Type": "Part-time ", "Contract Type": "Temporary ", "Hours per Week": "16 ", "Salary": ""}, {"Company": "Asda", "Link": "https://www.asda.jobs//vacancy/store-assistant---days-68225-tunbridge-wells/68244/description/", "Postcode": " TN2 3EY", "Latitude": "51.143", "Longitude": "0.3219", "Id": "68225", "Job Title ": "Store Assistant - Days ", "Location": "Tunbridge Wells ", "Employment Type": "Part-time ", "Contract Type": "Temporary ", "Hours per Week": "25 ", "Salary": ""}, {"Company": "Asda", "Link": "https://www.asda.jobs//vacancy/store-assistant---days-70743-workington/70762/description/", "Postcode": " CA14 1NQ", "Latitude": "54.630025", "Longitude": "-3.50065", "Id": "70743", "Job Title ": "Store Assistant - Days ", "Location": "Workington ", "Employment Type": "Part-time ", "Contract Type": "Temporary ", "Hours per Week": "16 ", "Salary": ""}]